[
{ "name": "Amman", "province": "Jordan", "coordinates": [35.9333, 31.9500] },
{ "name": "Zarqa", "province": "Jordan", "coordinates": [37.040034, 31.693654] },
{ "name": "Al-Ahsa", "province": "KSA", "coordinates": [49.6219, 25.4294] },
{ "name": "Al-Hofuf", "province": "KSA", "coordinates": [49.5833, 25.3833] },
{ "name": "Al-Qassim", "province": "KSA", "coordinates": [43.0000, 26.0000] },
{ "name": "Hafr Al-Batin", "province": "KSA", "coordinates": [45.9636, 28.4342] },
{ "name": "Wadi al-Dawasir", "province": "KSA", "coordinates": [45.1994, 20.5042] },
{ "name": "Taif", "province": "KSA", "coordinates": [40.4167, 21.2667] },
{ "name": "Bisha", "province": "KSA", "coordinates": [42.6208, 19.9844] },
{ "name": "Mecca", "province": "KSA", "coordinates": [39.816667, 21.416667] },
{ "name": "Riyadh", "province": "KSA", "coordinates": [46.724167, 24.711667] },
{ "name": "Eastern Province", "province": "KSA", "coordinates": [51.0000, 22.5000] },
{ "name": "Jeddah", "province": "KSA", "coordinates": [39.172989, 21.543489] },
{ "name": "Doha", "province": "Qatar", "coordinates": [51.522476, 25.280282] },
{ "name": "Dubai", "province": "UAE", "coordinates": [55.3095, 25.2697] }
]

